[{"name":"Sentrum","venues":[{"name":"Stratos","address":"Trondheimsveien 5","url":"http://www.stratos.as/","latitude":59.9805208,"longitude":10.9693933,"sun_from":"08:49","sun_to":"23:49"}]},{"name":"Grünerløkka","venues":[{"name":"Südøst","address":"Trondheimsveien 5","url":"http://www.sydost.no/","latitude":59.9805208,"longitude":10.9693933,"sun_from":"08:00","sun_to":"23:59"},{"name":"Mempis","address":"Thorvald Meyers gate 63","url":"http://www.memphis.no/","latitude":59.9218783,"longitude":10.7591402,"sun_from":"08:08","sun_to":"21:08"},{"name":"Blå","address":"Brenneriveien 9, Oslo","url":"http://www.blaaoslo.no/","latitude":59.9200294,"longitude":10.7528704,"sun_from":"08:00","sun_to":"23:30"},{"name":"Cross Road Club ","address":"Møllerveien 4, Oslo","url":"http://thecrossroadclub.no/","latitude":59.9213512,"longitude":10.7518655,"sun_from":"08:00","sun_to":"23:30"}]},{"name":"Torshov","venues":[{"name":"Myrens Kjøkken ","address":"Myrens Verksted D10, oslo","url":"http://www.myrenskjokken.no/","latitude":59.9339679,"longitude":10.7611626,"sun_from":"07:46","sun_to":"19:46"},{"name":"Café Teater (Trikkestallen)","address":"Torshovgata 33","url":"http://www.yelp.com/biz/cafe-teater-trikkestallen-oslo","latitude":59.9328872,"longitude":10.7681992,"sun_from":"08:41","sun_to":"23:59"}]},{"name":"Sagene","venues":[]},{"name":"Norstrand","venues":[{"name":"Ekebergrestauranten","address":"Kongsveien 15","url":"http://www.ekebergrestauranten.com/en/","latitude":68.8742547,"longitude":17.8454862,"sun_from":"08:07","sun_to":"08:07"}]},{"name":"Froger","venues":[]},{"name":"Majorstua","venues":[]},{"name":"Aker Brygge / Tjuvholmen","venues":[]},{"name":"Grønland","venues":[]},{"name":"Vålerenga","venues":[]},{"name":"Kampen","venues":[]},{"name":"Bislett","venues":[{"name":"Cafe Aurora","address":"Dalsbergstien 19, Oslo","url":"http://www.yelp.com/biz/aurora-caf%C3%A9-og-bar-oslo-3","latitude":59.9230796,"longitude":10.7329262,"sun_from":"08:04","sun_to":"08:04"}]}]